[{"getTblDisabledFac":{"header":{"resultCode":"00","resultMsg":"NORMAL_CODE"},"body":{"items":{"item":[{"gugun":"수영구","facility_type":"장애인지역사회재활시설","facility_name":"부산가톨릭농아인복지회 주간보호시설","road_address":"부산광역시 수영구 광일로29번길 59 (광안동)","lat":"35.160019","lon":"129.110857","tel":"051-751-8693","fixed_number":"16","basic_date":"2023-06-30"},{"gugun":"수영구","facility_type":"장애인지역사회재활시설","facility_name":"참누리 장애인주간보호시설","road_address":"부산광역시 수영구 금련로43번길 54 (망미동, 부산종합사회복지관)","lat":"35.171141","lon":"129.098666","tel":"051-755-3476","fixed_number":"18","basic_date":"2023-06-30"},{"gugun":"수영구","facility_type":"장애인지역사회재활시설","facility_name":"지니장애인주간보호센터","road_address":"부산광역시 수영구 연수로269번길 11 (망미동)","lat":"35.17431","lon":"129.10016","tel":"051-756-2332","fixed_number":"15","basic_date":"2023-06-30"},{"gugun":"수영구","facility_type":"장애인지역사회재활시설","facility_name":"두드림주간보호센터","road_address":"부산광역시 수영구 망미번영로63번길 60 (망미동)","lat":"35.175741","lon":"129.110039","tel":"051-756-0269","fixed_number":"15","basic_date":"2023-06-30"},{"gugun":"수영구","facility_type":"장애인지역사회재활시설","facility_name":"수영구장애인주간보호센터","road_address":"부산광역시 수영구 광남로 218-4 (민락동)","lat":"35.158838","lon":"129.122839","tel":"051-756-1595","fixed_number":"15","basic_date":"2023-06-30"},{"gugun":"수영구","facility_type":"장애인지역사회재활시설","facility_name":"해찬장애인주간보호센터","road_address":"부산광역시 수영구 망미로28번길 39, 102호 (망미동, 성우빌라)","lat":"35.170503","lon":"129.102332","tel":"051-711-4255","fixed_number":"12","basic_date":"2023-06-30"},{"gugun":"수영구","facility_type":"장애인지역사회재활시설","facility_name":"수영구수어통역센터","road_address":"부산광역시 수영구 수영로 569, 4층 (광안동)","lat":"35.156877","lon":"129.112777","tel":"051-759-9344","fixed_number":"0","basic_date":"2023-06-30"},{"gugun":"수영구","facility_type":"장애인거주시설","facility_name":"참사랑공동생활가정","road_address":"부산광역시 수영구 남천바다로21번길 83, 1동 105호 (광안동, 태림맨션)","lat":"35.1527","lon":"129.114909","tel":"051-755-5871","fixed_number":"4","basic_date":"2023-06-30"},{"gugun":"수영구","facility_type":"장애인거주시설","facility_name":"한빛장애인공동생활가정","road_address":"부산광역시 수영구 수미로42번길 20, 2층 (수영동)","lat":"35.172867","lon":"129.115027","tel":"051-752-0266","fixed_number":"4","basic_date":"2023-06-30"},{"gugun":"수영구","facility_type":"장애인거주시설","facility_name":"나사함사랑공동가정","road_address":"부산광역시 수영구 무학로34번길 36 (광안동)","lat":"35.160121","lon":"129.117054","tel":"051-752-4722","fixed_number":"4","basic_date":"2023-06-30"},{"gugun":"수영구","facility_type":"장애인거주시설","facility_name":"편안한집장애인공동생활가정","road_address":"부산광역시 수영구 수영로610번길 112, A동 101호 (광안동, 광안빌라)","lat":"35.159524","lon":"129.119841","tel":"051-754-8080","fixed_number":"4","basic_date":"2023-06-30"},{"gugun":"수영구","facility_type":"장애인직업재활시설","facility_name":"도영하우스","road_address":"부산광역시 수영구 수영로 690-5, 402호 (광안동)","lat":"35.167312","lon":"129.115839","tel":"051-714-0030","fixed_number":"30","basic_date":"2023-06-30"},{"gugun":"수영구","facility_type":"장애인직업재활시설","facility_name":"징검다리","road_address":"부산광역시 수영구 과정로91번길 19-2, 1층 (망미동)","lat":"35.179451","lon":"129.105937","tel":"051-755-0383","fixed_number":"20","basic_date":"2023-06-30"},{"gugun":"해운대구","facility_type":"장애인거주시설","facility_name":"영광재활원","road_address":"부산광역시 해운대구 삼어로91번길 11 (반여동)","lat":"35.206105","lon":"129.117806","tel":"051-523-5451","fixed_number":"30","basic_date":"2023-06-30"},{"gugun":"해운대구","facility_type":"장애인거주시설","facility_name":"아이들의집","road_address":"부산광역시 해운대구 운봉길 135 (반송동)","lat":"35.233184","lon":"129.143687","tel":"051-542-5980","fixed_number":"30","basic_date":"2023-06-30"},{"gugun":"해운대구","facility_type":"장애인거주시설","facility_name":"아하브마을","road_address":"울산광역시 울주군 상북면 명촌길천로 58","lat":"35.561196","lon":"129.084038","tel":"052-264-0138","fixed_number":"64","basic_date":"2023-06-30"},{"gugun":"해운대구","facility_type":"장애인거주시설","facility_name":"인덕원","road_address":"부산광역시 해운대구 반송로877번길 122 (반송동)","lat":"35.235171","lon":"129.149856","tel":"051-545-3147","fixed_number":"19","basic_date":"2023-06-30"},{"gugun":"해운대구","facility_type":"장애인공동생활가정","facility_name":"베데스다의 집","road_address":"부산광역시 해운대구 우동2로 88, 1동 101호 (우동,신동비치)","lat":"35.170075","lon":"129.156359","tel":"051-731-3268","fixed_number":"4","basic_date":"2023-06-30"},{"gugun":"해운대구","facility_type":"장애인직업재활시설","facility_name":"해운대구장애인근로사업장","road_address":"부산광역시 해운대구 석대로 29 (석대동)","lat":"35.222048","lon":"129.125846","tel":"051-531-1116","fixed_number":"30","basic_date":"2023-06-30"},{"gugun":"해운대구","facility_type":"장애인직업재활시설","facility_name":"장산직업재활센터","road_address":"부산광역시 해운대구 세실로27번길 19, 901호(좌동, 지오플라자)","lat":"35.168514","lon":"129.178027","tel":"051-703-1678","fixed_number":"20","basic_date":"2023-06-30"},{"gugun":"해운대구","facility_type":"장애인직업재활시설","facility_name":"영광직업재활원","road_address":"부산광역시 해운대구 삼어로91번길 11 (반여동)","lat":"35.206105","lon":"129.117806","tel":"051-523-5421","fixed_number":"37","basic_date":"2023-06-30"},{"gugun":"해운대구","facility_type":"장애인복지관","facility_name":"해운대구장애인복지관","road_address":"부산광역시 해운대구 선수촌로 207번길 81(반여동)","lat":"35.210862","lon":"129.121935","tel":"051-521-5200","fixed_number":"","basic_date":"2023-06-30"},{"gugun":"해운대구","facility_type":"수어통역센터","facility_name":"해운대구수어통역센터","road_address":"부산광역시 해운대로 663,상가에이동 203호(우동, 해운대비스타동원)","lat":"35.165714","lon":"129.161851","tel":"051-747-5177","fixed_number":"","basic_date":"2023-06-30"},{"gugun":"해운대구","facility_type":"장애인주간보호시설","facility_name":"운봉장애인주간보호센터","road_address":"부산광역시 해운대구 신반송로 200 (반송동)","lat":"35.203029","lon":"129.158664","tel":"051-543-3281","fixed_number":"14","basic_date":"2023-06-30"},{"gugun":"해운대구","facility_type":"장애인주간보호시설","facility_name":"반송장애인 주간보호센터","road_address":"부산광역시 해운대구 아랫반송로1번길 15 (반송동)","lat":"35.226402","lon":"129.146909","tel":"051-544-8050","fixed_number":"15","basic_date":"2023-06-30"},{"gugun":"해운대구","facility_type":"장애인주간보호시설","facility_name":"반여장애인주간보호센터","road_address":"부산광역시 해운대구 재반로226번길 13-73 (반여동)","lat":"35.198421","lon":"129.13179","tel":"070-4991-3966","fixed_number":"20","basic_date":"2023-06-30"},{"gugun":"해운대구","facility_type":"장애인주간보호시설","facility_name":"장산장애인주간보호센터","road_address":"부산광역시 해운대구 세실로27번길 19, 902호(좌동, 지오프라자)","lat":"35.168514","lon":"129.178027","tel":"051-703-1668","fixed_number":"20","basic_date":"2023-06-30"},{"gugun":"해운대구","facility_type":"장애인주간보호시설","facility_name":"장산길주간보호센터","road_address":"부산광역시 해운대구 신반송로 138-2, 201호 (반송동)","lat":"35.230014","lon":"129.161296","tel":"051-545-4480","fixed_number":"15","basic_date":"2023-06-30"},{"gugun":"해운대구","facility_type":"장애인주간보호시설","facility_name":"대성장애인주간보호센터","road_address":"부산광역시 해운대구 선수촌로 181-2, 3층 (반여동)","lat":"35.209024","lon":"129.123777","tel":"070-4788-2658","fixed_number":"20","basic_date":"2023-06-30"},{"gugun":"사하구","facility_type":"장애인직업재활시설","facility_name":"시온직업재활시설","road_address":"다대로 447, 501호(다대2동, 다인빌딩)","lat":"35.06291067","lon":"128.9793027","tel":"051-263-4214","fixed_number":"30","basic_date":"2023-06-30"},{"gugun":"동구","facility_type":"장애인직업재활시설","facility_name":"참일터","road_address":"부산광역시 동구 중앙대로236번길 13-5 (초량동)","lat":"35.1180014","lon":"129.0429747","tel":"0514653511","fixed_number":"43","basic_date":"2023-06-30"},{"gugun":"부산광역시 강서구","facility_type":"장애인주간보호시설","facility_name":"해솔장애인주간보호센터","road_address":"명지국제8로10번길 12","lat":"35.09216599","lon":"128.9021589","tel":"051-991-9700","fixed_number":"12","basic_date":"2023-07-20"},{"gugun":"부산광역시 강서구","facility_type":"기타복지시설","facility_name":"한솔대학 평생교육센터","road_address":"강서구 명지오션시티9로 45(3층)","lat":"35.08865394","lon":"128.9016924","tel":"051-203-2203","fixed_number":"18","basic_date":"2023-07-20"},{"gugun":"부산광역시 남구","facility_type":"장애인거주시설","facility_name":"소화영아재활원","road_address":"부산광역시 남구 무민사로 19 (감만동)","lat":"35.11235569","lon":"129.0803193","tel":"051-644-0272","fixed_number":"50","basic_date":"2023-06-30"},{"gugun":"부산광역시 남구","facility_type":"장애인거주시설","facility_name":"성프란치스꼬의집","road_address":"부산광역시 남구 용소로14번길 41(대연동)","lat":"35.13505176","lon":"129.0988903","tel":"051-626-5766","fixed_number":"30","basic_date":"2023-06-30"},{"gugun":"부산광역시 남구","facility_type":"장애인직업재활시설","facility_name":"하나장애인직업재활시설","road_address":"부산광역시 남구 용호로 154  용호데디칼센터 701호(용호동)","lat":"35.11855037","lon":"129.1115196","tel":"051-634-3417","fixed_number":"20","basic_date":"2023-06-30"},{"gugun":"부산광역시 남구","facility_type":"장애인직업재활시설","facility_name":"든솔직업재활센터","road_address":"부산광역시 남구 유엔로25번길 58(우암동)","lat":"35.12814443","lon":"129.0778096","tel":"051-612-0081","fixed_number":"22","basic_date":"2023-06-30"},{"gugun":"부산광역시 남구","facility_type":"장애인복지관","facility_name":"남구장애인복지관","road_address":"부산광역시 남구 조각공원로11번길 38(대연동)","lat":"35.12923682","lon":"129.0992147","tel":"051-626-6990","fixed_number":"200","basic_date":"2023-06-30"},{"gugun":"부산광역시 남구","facility_type":"장애인복지관","facility_name":"나사함발달장애인복지관","road_address":"부산광역시 남구 못골번영로 70(대연동)","lat":"35.14133283","lon":"129.0890636","tel":"051-627-8521","fixed_number":"150","basic_date":"2023-06-30"},{"gugun":"부산광역시 남구","facility_type":"장애인주간보호센터","facility_name":"아띠주간보호센터","road_address":"부산광역시 남구 석포로127번길 97(대연동)","lat":"35.12743766","lon":"129.0900521","tel":"051-625-9308","fixed_number":"20","basic_date":"2023-06-30"},{"gugun":"부산광역시 남구","facility_type":"장애인주간보호센터","facility_name":"나사함주간보호센터","road_address":"부산광역시 남구 못골번영로 70(대연동)","lat":"35.14133283","lon":"129.0890636","tel":"051-623-8522","fixed_number":"15","basic_date":"2023-06-30"},{"gugun":"부산광역시 남구","facility_type":"장애인주간보호센터","facility_name":"솔라피데주간보호센터","road_address":"부산광역시 남구 진남로 160-20(대연동)","lat":"35.14083137","lon":"129.0796981","tel":"051-628-8048","fixed_number":"15","basic_date":"2023-06-30"},{"gugun":"부산광역시 남구","facility_type":"장애인주간보호센터","facility_name":"남구장애인복지관주간보호센터","road_address":"부산광역시 남구 조각공원로11번길 38(대연동)","lat":"35.12923682","lon":"129.0992147","tel":"070-4648-9330","fixed_number":"19","basic_date":"2023-06-30"},{"gugun":"부산광역시 남구","facility_type":"장애인주간보호센터","facility_name":"꿈터장애인주간보호센터","road_address":"부산광역시 남구 진남로96번나길 17-1(대연동)","lat":"35.13910378","lon":"129.0838916","tel":"051-643-0338","fixed_number":"13","basic_date":"2023-06-30"},{"gugun":"부산광역시 남구","facility_type":"장애인공동생활가정","facility_name":"다울장애인공동생활가정","road_address":"부산광역시 남구 용소로64번길 72, 102호(대연동)","lat":"35.132034","lon":"129.097197","tel":"051-628-8880","fixed_number":"4","basic_date":"2023-06-30"},{"gugun":"부산광역시 남구","facility_type":"장애인공동생활가정","facility_name":"밀알공동생활가정","road_address":"부산광역시 남구 수영로39번가길 83, 101동 1205호(문현동)","lat":"35.139064","lon":"129.076432","tel":"051-642-6222","fixed_number":"4","basic_date":"2023-06-30"},{"gugun":"부산광역시 남구","facility_type":"장애인공동생활가정","facility_name":"나사함공동생활가정","road_address":"부산광역시 남구 문현로23번길 30(문현동)","lat":"35.143004","lon":"129.072717","tel":"051-623-8524","fixed_number":"4","basic_date":"2023-06-30"},{"gugun":"부산광역시 남구","facility_type":"장애인공동생활가정","facility_name":"나사함나눔공동가정","road_address":"부산광역시 남구 문현로23번길 30(문현동)","lat":"35.143004","lon":"129.072717","tel":"051-623-8543","fixed_number":"4","basic_date":"2023-06-30"},{"gugun":"서구","facility_type":"장애인거주시설","facility_name":"천마재활원","road_address":"천해로 7번길 55-10","lat":"35.08042192","lon":"129.0190211","tel":"051-247-4084","fixed_number":"66","basic_date":"2023-06-30"},{"gugun":"서구","facility_type":"장애인거주시설","facility_name":"부산라이트하우스","road_address":"충무대로 73","lat":"35.07913384","lon":"129.0199809","tel":"051-256-3096","fixed_number":"36","basic_date":"2023-06-30"},{"gugun":"서구","facility_type":"장애인거주시설","facility_name":"나라단기거주시설","road_address":"천해로 7번길 55-10","lat":"35.08042192","lon":"129.0190211","tel":"051-715-1511","fixed_number":"10","basic_date":"2023-06-30"},{"gugun":"서구","facility_type":"장애인직업재활시설","facility_name":"천마도예의숲","road_address":"천해로 7번길 55-10","lat":"35.08042192","lon":"129.0190211","tel":"051-246-4084","fixed_number":"45","basic_date":"2023-06-30"},{"gugun":"서구","facility_type":"장애인직업재활시설","facility_name":"꿈나래","road_address":"보수대로154번길 40","lat":"35.11099472","lon":"129.0236363","tel":"051-926-9005","fixed_number":"32","basic_date":"2023-06-30"},{"gugun":"서구","facility_type":"장애인지역사회재활시설","facility_name":"서구장애인 주간보호센터","road_address":"망양로 193번길 104","lat":"35.11117899","lon":"129.0263591","tel":"051-253-1986","fixed_number":"15","basic_date":"2023-06-30"},{"gugun":"서구","facility_type":"장애인지역사회재활시설","facility_name":"서구장애인복지관 주간보호센터","road_address":"보수대로154번길 36","lat":"35.11067954","lon":"129.0235995","tel":"051-242-3930","fixed_number":"20","basic_date":"2023-06-30"},{"gugun":"서구","facility_type":"장애인지역사회재활시설","facility_name":"수어통역센터","road_address":"대청로 6번길 41-1","lat":"35.10139384","lon":"129.0205437","tel":"051-244-9770","fixed_number":"0","basic_date":"2023-06-30"},{"gugun":"서구","facility_type":"장애인지역사회재활시설","facility_name":"서구장애인복지관","road_address":"보수대로154번길 36","lat":"35.11067954","lon":"129.0235995","tel":"051-242-3930","fixed_number":"150","basic_date":"2023-06-30"},{"gugun":"연제구","facility_type":"장애인거주시설(공동생활가정)","facility_name":"라온제나공동생활가정","road_address":"부산광역시 연제구 거제천로255번가길 51나동 105호(거제동,산호맨션)","lat":"35.19313645","lon":"129.0879482","tel":"051-867-2352","fixed_number":"4","basic_date":"2023-06-30"},{"gugun":"연제구","facility_type":"장애인지역사회재활시설(주간보호센터)","facility_name":"희망학교장애인주간보호센터","road_address":"부산광역시 연제구 중앙천로73번길 15(연산동)","lat":"35.17976756","lon":"129.0800518","tel":"051-864-3927","fixed_number":"15","basic_date":"2023-06-30"},{"gugun":"연제구","facility_type":"장애인지역사회재활시설(주간보호센터)","facility_name":"부산광역시장애인종합복지관 주간보호센터","road_address":"부산광역시 연제구 중앙대로1150번길 15(연산동)","lat":"35.19056184","lon":"129.0815454","tel":"051-790-6156","fixed_number":"17","basic_date":"2023-06-30"},{"gugun":"연제구","facility_type":"장애인지역사회재활시설(수어통역센터)","facility_name":"부산수어통역센터","road_address":"부산광역시 연제구 월드컵대로 21, 5층(연산동, 한원빌딩)","lat":"35.17650135","lon":"129.0854428","tel":"051-635-3746","fixed_number":"30","basic_date":"2023-06-30"},{"gugun":"연제구","facility_type":"장애인직업재활시설(보호작업장)","facility_name":"양지직업재활원","road_address":"부산광역시 연제구 화지로 109(거제동)","lat":"35.1852124","lon":"129.0657737","tel":"051-506-5432","fixed_number":"35","basic_date":"2023-06-30"},{"gugun":"연제구","facility_type":"장애인직업재활시설(보호작업장)","facility_name":"양지비전센터","road_address":"부산광역시 연제구 화지로 109","lat":"35.1852124","lon":"129.0657737","tel":"051-503-6001","fixed_number":"25","basic_date":"2023-06-30"},{"gugun":"연제구","facility_type":"장애인직업재활시설(보호작업장)","facility_name":"부산직업재활원","road_address":"부산광역시 연제구 톳고개로 48(연산동)","lat":"35.18140793","lon":"129.1020534","tel":"051-759-9213","fixed_number":"50","basic_date":"2023-06-30"},{"gugun":"연제구","facility_type":"장애인직업재활시설(보호작업장)","facility_name":"두배일터","road_address":"경상남도 양산시 신명3길 125(평산동)","lat":"35.38818036","lon":"129.1391381","tel":"055-365-2820","fixed_number":"30","basic_date":"2023-06-30"},{"gugun":"연제구","facility_type":"장애인직업재활시설(보호작업장)","facility_name":"태양의집직업재활원","road_address":"부산광역시 연제구 고분로242번길 56","lat":"35.1820181","lon":"129.1082758","tel":"051-754-9747","fixed_number":"30","basic_date":"2023-06-30"},{"gugun":"연제구","facility_type":"기타(장애인협회)","facility_name":"연제구장애인협회","road_address":"부산광역시 연제구 봉수로 17(연산종합사회복지관4층)","lat":"35.17272947","lon":"129.0889055","tel":"051-866-0214","fixed_number":"","basic_date":"2023-06-30"},{"gugun":"연제구","facility_type":"장애인거주시설(생활시설)","facility_name":"성우원","road_address":"부산광역시 연제구 톳고개로 48(연산동)","lat":"35.18140793","lon":"129.1020534","tel":"051-759-9211~2","fixed_number":"54","basic_date":"2023-06-30"},{"gugun":"부산광역시 부산진구","facility_type":"장애인거주시설","facility_name":"새들처럼","road_address":"부산광역시 부산진구 양지로17번길 10-1(양정동)","lat":"35.16905312","lon":"129.0705791","tel":"051-809-5670","fixed_number":"20","basic_date":"2023-06-30"},{"gugun":"부산광역시 부산진구","facility_type":"장애인단기거주시설","facility_name":"헬렌의집","road_address":"부산광역시 부산진구 양지로 29(양정동)","lat":"37.45808835","lon":"126.7143598","tel":"051-852-1055","fixed_number":"15","basic_date":"2023-06-30"},{"gugun":"부산광역시 부산진구","facility_type":"공동생활가정","facility_name":"아순타의집","road_address":"부산광역시 부산진구 개금본동로17번길 12 (개금동), 301호","lat":"35.15868328","lon":"129.0241684","tel":"051-864-2320","fixed_number":"4","basic_date":"2023-06-30"},{"gugun":"부산광역시 부산진구","facility_type":"공동생활가정","facility_name":"어울림홈","road_address":"부산광역시 부산진구 가야대로679번길166 가야화신타운 101-602","lat":"35.15553726","lon":"129.0379362","tel":"051-902-2272","fixed_number":"4","basic_date":"2023-06-30"},{"gugun":"부산광역시 부산진구","facility_type":"장애인직업재활시설","facility_name":"신애직업재활원","road_address":"부산광역시 부산진구 성지로62번길 40 (초읍동)","lat":"35.17771616","lon":"129.0561463","tel":"051-902-9128","fixed_number":"45","basic_date":"2023-06-30"},{"gugun":"부산광역시 부산진구","facility_type":"장애인직업재활시설","facility_name":"동인직업재활센터","road_address":"부산광역시 부산진구 당감로45번길 24 (당감동)","lat":"35.16573365","lon":"129.0377476","tel":"051-807-6877","fixed_number":"30","basic_date":"2023-06-30"},{"gugun":"부산광역시 부산진구","facility_type":"장애인직업재활시설","facility_name":"토리직업재활센터","road_address":"부산광역시 부산진구 마철로51 (당감동)","lat":"35.1580843","lon":"129.0457175","tel":"051-892-9800","fixed_number":"21","basic_date":"2023-06-30"},{"gugun":"부산광역시 부산진구","facility_type":"장애인직업재활시설","facility_name":"부산진구장애인 보호작업장","road_address":"부산광역시 부산진구 전포대로300번길 6 (전포동)","lat":"35.16404711","lon":"129.0658484","tel":"051-710-8190","fixed_number":"30","basic_date":"2023-06-30"},{"gugun":"부산광역시 부산진구","facility_type":"장애인직업재활시설","facility_name":"부산장애인직업적응훈련센터","road_address":"부산광역시 부산진구 동성로112번나길 5, 3층(전포동)","lat":"35.16355976","lon":"129.0679605","tel":"051-926-0522","fixed_number":"30","basic_date":"2023-06-30"},{"gugun":"부산광역시 부산진구","facility_type":"장애인지역사회재활시설","facility_name":"부산진구장애인복지관","road_address":"부산광역시 부산진구 전포대로300번길 6 (전포동)","lat":"35.16404711","lon":"129.0658484","tel":"051-808-8190","fixed_number":"","basic_date":"2023-06-30"},{"gugun":"부산광역시 부산진구","facility_type":"장애인지역사회재활시설","facility_name":"참사랑장애인주간보호센터","road_address":"부산광역시 부산진구 가야대로 454번길 16 (개금동)","lat":"35.15237684","lon":"129.0216418","tel":"051-892-2005","fixed_number":"15","basic_date":"2023-06-30"},{"gugun":"부산광역시 부산진구","facility_type":"장애인지역사회재활시설","facility_name":"나래울장애인주간보호센터","road_address":"부산광역시 부산진구 복지로 117-12 (개금동)","lat":"35.14260918","lon":"129.0201588","tel":"051-893-0035","fixed_number":"20","basic_date":"2023-06-30"},{"gugun":"부산광역시 부산진구","facility_type":"장애인지역사회재활시설","facility_name":"개금장애인주간보호센터","road_address":"부산광역시 부산진구 백양관문로77번길 140 (개금동)","lat":"35.16412973","lon":"129.0249942","tel":"051-893-5034","fixed_number":"15","basic_date":"2023-06-30"},{"gugun":"부산광역시 부산진구","facility_type":"장애인지역사회재활시설","facility_name":"부산데프장애인주간보호센터","road_address":"부산광역시 부산진구 새싹로52번길 39(부전동, 5층)","lat":"35.16237717","lon":"129.0579016","tel":"051-819-7715","fixed_number":"20","basic_date":"2023-06-30"},{"gugun":"부산광역시 부산진구","facility_type":"장애인생산품판매시설","facility_name":"부산장애인생산품판매시설","road_address":"부산광역시 부산진구 중앙대로979번길 29 (양정동)","lat":"35.17747997","lon":"129.0727427","tel":"051-852-0258","fixed_number":"0","basic_date":"2023-06-30"},{"gugun":"동구","facility_type":"장애인공동생활가정","facility_name":"애덕의집","road_address":"부산광역시 동구 초량중로 27(초량동)","lat":"35.1255003","lon":"129.0415661","tel":"0514666003","fixed_number":"4","basic_date":"2023-06-30"},{"gugun":"동구","facility_type":"장애인공동생활가정","facility_name":"루비홈","road_address":"부산광역시 동구 홍곡로 67 동남아파트 다동 304호","lat":"35.1456902","lon":"129.0424159","tel":"0514414535","fixed_number":"4","basic_date":"2023-06-30"},{"gugun":"동구","facility_type":"장애인복지관","facility_name":"동구장애인복지관","road_address":"부산광역시 동구 망양로 748(수정동)","lat":"35.1308614","lon":"129.040411","tel":"0514699756","fixed_number":"","basic_date":"2023-06-30"},{"gugun":"동구","facility_type":"장애인주간보호시설","facility_name":"동구장애인주간보호센터","road_address":"부산광역시 동구 안창로 57, 1층(범일동)","lat":"35.1456382","lon":"129.0424284","tel":"0516333367","fixed_number":"12","basic_date":"2023-06-30"},{"gugun":"동구","facility_type":"장애인주간보호시설","facility_name":"큰빛장애인주간보호센터","road_address":"부산광역시 동구 초량중로 27(초량동)","lat":"35.1456902","lon":"129.0424159","tel":"0514643909","fixed_number":"10","basic_date":"2023-06-30"},{"gugun":"동구","facility_type":"장애인주간보호시설","facility_name":"동백복지주간보호센터","road_address":"부산광역시 동구 중앙대로236번길 13-5(초량동)","lat":"35.1180014","lon":"129.0429747","tel":"0514667706","fixed_number":"20","basic_date":"2023-06-30"},{"gugun":"동구","facility_type":"장애인주간보호시설","facility_name":"부산시각장애인주간보호센터","road_address":"부산광역시 동구 중앙대로320번길 4 (초량동)","lat":"35.1246725","lon":"129.0453652","tel":"0514623292","fixed_number":"12","basic_date":"2023-06-30"},{"gugun":"동구","facility_type":"장애인주간보호시설","facility_name":"행복한장애인주간보호센터","road_address":"부산광역시 동구 망양로 748 (수정동)","lat":"35.1308614","lon":"129.040411","tel":"0514699756","fixed_number":"12","basic_date":"2023-06-30"},{"gugun":"동구","facility_type":"장애인주간보호시설","facility_name":"동림장애인주간보호센터","road_address":"부산광역시 동구 중앙대로 509-1, 5층(범일동)","lat":"35.1387939","lon":"129.0562694","tel":"0514691255","fixed_number":"20","basic_date":"2023-06-30"},{"gugun":"동구","facility_type":"장애인생활이동지원센터","facility_name":"부산장애인생활이동지원센터","road_address":"부산광역시 동구 중앙대로320번길 4 (초량동)","lat":"35.1246725","lon":"129.0453652","tel":"0514643292","fixed_number":"","basic_date":"2023-06-30"},{"gugun":"부산광역시 중구","facility_type":"장애인직업재활시설","facility_name":"부산안마수련원","road_address":"부산광역시 중구 중앙대로 143-1","lat":"35.110482","lon":"129.037318","tel":"051-462-2106","fixed_number":"30","basic_date":"2023-06-30"},{"gugun":"부산광역시 중구","facility_type":"장애인지역사회재활시설","facility_name":"중구장애아동주간보호센터","road_address":"부산광역시 중구 망양로 309, 3층","lat":"35.105776","lon":"129.028241","tel":"051-441-9224","fixed_number":"10","basic_date":"2023-06-30"},{"gugun":"부산광역시 중구","facility_type":"장애인지역사회재활시설","facility_name":"중구장애인주간보호시설","road_address":"부산광역시 중구 초량상로5번길 20, 1층","lat":"35.112911","lon":"129.034171","tel":"051-466-9887","fixed_number":"10","basic_date":"2023-06-30"},{"gugun":"부산광역시 영도구","facility_type":"의료재활시설","facility_name":"천성의원","road_address":"부산광역시 영도구 일산봉로 95(청학동)","lat":"35.0904098","lon":"129.0650745","tel":"051-412-4408","fixed_number":"20","basic_date":"2023-06-30"},{"gugun":"부산광역시 영도구","facility_type":"주간보호시설","facility_name":"어울림주간보호센터","road_address":"부산광역시 영도구 함지로79번길 76(동삼동)","lat":"35.07600143","lon":"129.0655229","tel":"051-403-4200","fixed_number":"12","basic_date":"2023-06-30"},{"gugun":"부산광역시 영도구","facility_type":"주간보호시설","facility_name":"해냄장애인주간보호센터","road_address":"부산광역시 영도구 산정길 138(신선동3가)","lat":"35.08121547","lon":"129.0475086","tel":"051-413-4661","fixed_number":"18","basic_date":"2023-06-30"},{"gugun":"부산광역시 영도구","facility_type":"주간보호시설","facility_name":"상리장애인주간보호센터","road_address":"부산광역시 영도구 상리로 41(동삼동)","lat":"35.08468831","lon":"129.068893","tel":"051-404-5061","fixed_number":"15","basic_date":"2023-06-30"},{"gugun":"부산광역시 영도구","facility_type":"주간보호시설","facility_name":"임마누엘장애인주간보호센터","road_address":"부산광역시 영도구 절영로490번길 55, 106-107(동삼동,한창주택)","lat":"35.07009821","lon":"129.0725618","tel":"070-7206-4377","fixed_number":"10","basic_date":"2023-06-30"},{"gugun":"부산광역시 영도구","facility_type":"주간보호시설","facility_name":"영도구장애인복지관 장애인주간보호센터","road_address":"부산광역시 영도구 함지로79번길 6(동삼동)","lat":"35.07526852","lon":"129.0668621","tel":"051-403-6060","fixed_number":"12","basic_date":"2023-06-30"},{"gugun":"부산광역시 영도구","facility_type":"장애인재활치료시설","facility_name":"절영발달지원센터","road_address":"부산광역시 영도구 함지로 33-10(동삼동)","lat":"35.07221265","lon":"129.0617457","tel":"051-404-5530","fixed_number":"20","basic_date":"2023-06-30"},{"gugun":"부산광역시 영도구","facility_type":"장애인재활치료시설","facility_name":"상리발달지원센터","road_address":"부산광역시 영도구 상리로 63-16(동삼동)","lat":"35.08616799","lon":"129.0707765","tel":"051-404-5061","fixed_number":"10","basic_date":"2023-06-30"},{"gugun":"부산광역시 영도구","facility_type":"장애인지역사회재활시설","facility_name":"영도구장애인복지관","road_address":"부산광역시 영도구 함지로79번길 6(동삼동)","lat":"35.07526852","lon":"129.0668621","tel":"051-403-6060","fixed_number":"100","basic_date":"2023-06-30"},{"gugun":"","facility_type":"생활시설","facility_name":"평화의집","road_address":"부산광역시 북구 양달로 65 (화명동)","lat":"35.24425233","lon":"129.0198938","tel":"051-331-4344","fixed_number":"50","basic_date":"2022-08-08"},{"gugun":"","facility_type":"직업재활시설","facility_name":"평화직업재활원","road_address":"부산광역시 북구 양달로 65 (화명동)","lat":"35.24425233","lon":"129.0198938","tel":"051-335-7749","fixed_number":"31","basic_date":"2022-08-08"},{"gugun":"","facility_type":"직업재활시설","facility_name":"로뎀직업재활센터","road_address":"부산광역시 북구 의성로 109번길 8 (덕천동)","lat":"35.21076697","lon":"129.0111711","tel":"051-343-7797","fixed_number":"30","basic_date":"2022-08-08"},{"gugun":"","facility_type":"이용시설","facility_name":"부산시시각장애인복지관(부산시 소유)","road_address":"부산광역시 북구 시랑로 132번길 38 (구포동)","lat":"35.19507392","lon":"129.0079126","tel":"051-338-0017","fixed_number":"80","basic_date":"2022-08-08"},{"gugun":"","facility_type":"이용시설","facility_name":"부산뇌병변복지관","road_address":"부산광역시 북구 학사로 246(금곡동)","lat":"35.24445208","lon":"129.0100624","tel":"051-333-3888","fixed_number":"80","basic_date":"2022-08-08"},{"gugun":"","facility_type":"이용시설","facility_name":"북구장애인종합복지관(북구 소유)","road_address":"부산광역시 북구 금곡대로 616번길 145(금곡동)","lat":"35.26712211","lon":"129.017554","tel":"051-362-7755","fixed_number":"80","basic_date":"2022-08-08"},{"gugun":"","facility_type":"이용시설","facility_name":"부산시시각장애인복지관 부설 주간보호센터","road_address":"부산광역시 북구 시랑로132번길 38 (구포동)","lat":"35.19507392","lon":"129.0079126","tel":"051-338-0017","fixed_number":"35","basic_date":"2022-08-08"},{"gugun":"","facility_type":"이용시설","facility_name":"부산뇌병변복지관 부설 주간보호센터","road_address":"부산광역시 북구 학사로 246(금곡동)","lat":"35.24445208","lon":"129.0100624","tel":"051-333-3888","fixed_number":"11","basic_date":"2022-08-08"},{"gugun":"","facility_type":"이용시설","facility_name":"북구장애인종합복지관 부설 주간보호센터","road_address":"부산광역시 북구 금곡대로 616번길 145(금곡동)","lat":"35.26712211","lon":"129.017554","tel":"051-362-7755","fixed_number":"15","basic_date":"2022-08-08"},{"gugun":"","facility_type":"이용시설","facility_name":"만덕장애인주간보호센터","road_address":"부산광역시 북구 함박봉로140번길 102(만덕동)","lat":"35.20185453","lon":"129.0353961","tel":"051-332-8004","fixed_number":"15","basic_date":"2022-08-08"},{"gugun":"","facility_type":"이용시설","facility_name":"부산뇌병변복지관 부설 CCI마실주간보호센터","road_address":"부산광역시 북구 금곡대로285번길 46(화명동)","lat":"35.23433003","lon":"129.0110793","tel":"051-711-9036","fixed_number":"10","basic_date":"2022-08-08"},{"gugun":"","facility_type":"이용시설","facility_name":"북부산수어통역센터","road_address":"부산광역시 북구 백양대로 1061 (구포동)","lat":"35.20004044","lon":"128.9970584","tel":"051-337-3940","fixed_number":"20","basic_date":"2022-08-08"},{"gugun":"","facility_type":"공동생활가정","facility_name":"다솜의 집","road_address":"부산광역시 북구 시랑로 131번길 24, 201호, 202호(구포동)","lat":"35.19647524","lon":"129.0106533","tel":"051-338-5565","fixed_number":"3","basic_date":"2022-08-08"},{"gugun":"","facility_type":"공동생활가정","facility_name":"다울","road_address":"부산광역시 북구 은행나무로36번길 104, 8동 107호(만덕동, 일동아파트)","lat":"35.2048436","lon":"129.041057","tel":"051-337-3482","fixed_number":"0","basic_date":"2022-08-08"},{"gugun":"","facility_type":"기타시설","facility_name":"부산장애인자립생활센터","road_address":"부산광역시 북구 화명신도시로117, 8층 (화명동,메트로프라자)","lat":"35.23466847","lon":"129.0104903","tel":"051-338-2287","fixed_number":"30","basic_date":"2022-08-08"},{"gugun":"북구","facility_type":"생활시설","facility_name":"평화의집","road_address":"부산광역시 북구 양달로 65 (화명동)","lat":"35.24425233","lon":"129.0198938","tel":"051-331-4344","fixed_number":"50","basic_date":"2022-12-31"},{"gugun":"북구","facility_type":"직업재활시설","facility_name":"평화직업재활원","road_address":"부산광역시 북구 양달로 65 (화명동)","lat":"35.24425233","lon":"129.0198938","tel":"051-335-7749","fixed_number":"31","basic_date":"2022-12-31"},{"gugun":"북구","facility_type":"직업재활시설","facility_name":"로뎀직업재활센터","road_address":"부산광역시 북구 의성로 109번길 8 (덕천동)","lat":"35.21076697","lon":"129.0111711","tel":"051-343-7797","fixed_number":"30","basic_date":"2022-12-31"},{"gugun":"북구","facility_type":"직업재활시설","facility_name":"사단법인효드림아마윤장애인직업재활센터","road_address":"백양대로1102번길 15(구포동)","lat":"35.20250783","lon":"129.0006248","tel":"051-338-5688","fixed_number":"25","basic_date":"2022-12-31"},{"gugun":"북구","facility_type":"이용시설","facility_name":"부산시시각장애인복지관(부산시 소유)","road_address":"부산광역시 북구 시랑로 132번길 38 (구포동)","lat":"35.19507392","lon":"129.0079126","tel":"051-338-0017","fixed_number":"80","basic_date":"2022-12-31"},{"gugun":"북구","facility_type":"이용시설","facility_name":"부산뇌병변복지관","road_address":"부산광역시 북구 학사로 246(금곡동)","lat":"35.24445208","lon":"129.0100624","tel":"051-333-3888","fixed_number":"80","basic_date":"2022-12-31"},{"gugun":"북구","facility_type":"이용시설","facility_name":"북구장애인종합복지관(북구 소유)","road_address":"부산광역시 북구 금곡대로 616번길 145(금곡동)","lat":"35.26712211","lon":"129.017554","tel":"051-362-7755","fixed_number":"80","basic_date":"2022-12-31"},{"gugun":"북구","facility_type":"이용시설","facility_name":"부산시시각장애인복지관 부설 주간보호센터","road_address":"부산광역시 북구 시랑로132번길 38 (구포동)","lat":"35.19507392","lon":"129.0079126","tel":"051-338-0017","fixed_number":"12","basic_date":"2022-12-31"},{"gugun":"북구","facility_type":"이용시설","facility_name":"부산뇌병변복지관 부설 주간보호센터","road_address":"부산광역시 북구 학사로 246(금곡동)","lat":"35.24445208","lon":"129.0100624","tel":"051-333-3888","fixed_number":"20","basic_date":"2022-12-31"},{"gugun":"북구","facility_type":"이용시설","facility_name":"북구장애인종합복지관 부설 주간보호센터","road_address":"부산광역시 북구 금곡대로 616번길 145(금곡동)","lat":"35.26712211","lon":"129.017554","tel":"051-362-7755","fixed_number":"15","basic_date":"2022-12-31"},{"gugun":"북구","facility_type":"이용시설","facility_name":"만덕장애인주간보호센터","road_address":"부산광역시 북구 함박봉로140번길 102(만덕동)","lat":"35.20185453","lon":"129.0353961","tel":"051-332-8004","fixed_number":"15","basic_date":"2022-12-31"},{"gugun":"북구","facility_type":"이용시설","facility_name":"부산뇌병변복지관 부설 CCI마실주간보호센터","road_address":"부산광역시 북구 금곡대로285번길 46(화명동)","lat":"35.23433003","lon":"129.0110793","tel":"051-711-9036","fixed_number":"15","basic_date":"2022-12-31"},{"gugun":"북구","facility_type":"이용시설","facility_name":"북부산수어통역센터","road_address":"부산광역시 북구 백양대로 1061 (구포동)","lat":"35.20004044","lon":"128.9970584","tel":"051-337-3940","fixed_number":"20","basic_date":"2022-12-31"},{"gugun":"금정구","facility_type":"장애인거주시설","facility_name":"선아의집","road_address":"부산광역시 금정구 금샘로 39(장전동)","lat":"129.0764386","lon":"35.2287179","tel":"051-582-0089","fixed_number":"50","basic_date":"2023-07-17"},{"gugun":"금정구","facility_type":"장애인거주시설","facility_name":"바오로 아람터","road_address":"부산광역시 금정구 청룡예전로43번길 34(청룡동)","lat":"129.0889857","lon":"35.27726182","tel":"051-514-6988","fixed_number":"30","basic_date":"2023-07-17"},{"gugun":"금정구","facility_type":"장애인거주시설","facility_name":"사랑홈","road_address":"부산광역시 금정구 동부곡로42번길 49, 302호(부곡동, 신아빌라)","lat":"129.0948435","lon":"35.22496512","tel":"051-513-9024","fixed_number":"4","basic_date":"2023-07-17"},{"gugun":"금정구","facility_type":"장애인거주시설","facility_name":"가톨릭사회복지회 나눔터","road_address":"부산광역시 금정구 동현로 51-11(부곡동)","lat":"129.0940718","lon":"35.22312428","tel":"051-517-0615","fixed_number":"4","basic_date":"2023-07-17"},{"gugun":"금정구","facility_type":"지역사회재활시설","facility_name":"금정구 장애인복지관","road_address":"부산광역시 금정구 서부로 77(서동)","lat":"129.0989667","lon":"35.21955549","tel":"051-523-0100","fixed_number":"","basic_date":"2023-07-17"},{"gugun":"금정구","facility_type":"지역사회재활시설","facility_name":"금정구장애인주간보호시설","road_address":"부산광역시 금정구 서부로 77(서동)","lat":"129.0989667","lon":"35.21955549","tel":"051-523-7779","fixed_number":"18","basic_date":"2023-07-17"},{"gugun":"금정구","facility_type":"지역사회재활시설","facility_name":"루하마장애인 주간보호센터","road_address":"부산광역시 금정구 두실로 23(구서동)","lat":"129.0887728","lon":"35.26055226","tel":"051-581-0641","fixed_number":"15","basic_date":"2023-07-17"},{"gugun":"금정구","facility_type":"지역사회재활시설","facility_name":"이룸장애인 주간보호센터","road_address":"부산광역시 금정구 금샘로 39(장전동)","lat":"129.0764386","lon":"35.2287179","tel":"051-514-2842","fixed_number":"15","basic_date":"2023-07-17"},{"gugun":"금정구","facility_type":"지역사회재활시설","facility_name":"동부산수어통역센터","road_address":"부산광역시 금정구 금정로161번길9(장전동)","lat":"129.0872852","lon":"35.23888754","tel":"051-513-6350","fixed_number":"","basic_date":"2023-07-17"},{"gugun":"금정구","facility_type":"장애인직업재활시설","facility_name":"가마실로직업재활원","road_address":"부산광역시 금정구 가마실로65-7(부곡동)","lat":"129.0955009","lon":"35.22402173","tel":"051-710-9747","fixed_number":"20","basic_date":"2023-07-17"},{"gugun":"금정구","facility_type":"장애인직업재활시설","facility_name":"금정구장애인근로작업장","road_address":"부산광역시 금정구 서부로 77(서동)","lat":"129.0989667","lon":"35.21955549","tel":"051-529-3145","fixed_number":"43","basic_date":"2023-07-17"},{"gugun":"금정구","facility_type":"장애인직업재활시설","facility_name":"가꿈복지직업재활시설","road_address":"부산광역시 금정구 금사로 9,B2(서동,트레비앙)","lat":"129.1061589","lon":"35.21533454","tel":"051-862-8090","fixed_number":"20","basic_date":"2023-07-17"},{"gugun":"부산광역시 사상구","facility_type":"장애인주간보호시설","facility_name":"반딧불이장애인 주간보호센터","road_address":"부산광역시 사상구 주례로 135, 101호 (주례3동)","lat":"35.14590129","lon":"129.0015765","tel":"051-322-0061","fixed_number":"15","basic_date":"2023-07-05"},{"gugun":"부산광역시 사상구","facility_type":"장애인주간보호시설","facility_name":"사상구장애인복지관 부설주간보호센터","road_address":"부산광역시 사상구 모라로192번길 21 (모라3동)","lat":"35.18490104","lon":"129.0009355","tel":"051-986-4030","fixed_number":"14","basic_date":"2023-07-05"},{"gugun":"부산광역시 사상구","facility_type":"장애인주간보호시설","facility_name":"체리동산 주간보호센터","road_address":"부산광역시 사상구 가야대로366번길 107 (주례2동)","lat":"35.14631773","lon":"129.0132693","tel":"051-314-7007","fixed_number":"15","basic_date":"2023-07-05"},{"gugun":"부산광역시 사상구","facility_type":"장애인주간보호시설","facility_name":"예원 주간보호센터","road_address":"부산광역시 사상구 사상로 84-8(감전동)","lat":"35.15507921","lon":"128.9926233","tel":"051-313-6885","fixed_number":"15","basic_date":"2023-07-05"},{"gugun":"부산광역시 사상구","facility_type":"점자도서관","facility_name":"부산점자도서관","road_address":"부산광역시 사상구 덕상로72번길 9(덕포2동)","lat":"35.17810596","lon":"128.9898076","tel":"051-302-9010","fixed_number":"0","basic_date":"2023-07-05"},{"gugun":"부산광역시 사상구","facility_type":"장애인보호작업장","facility_name":"사상구 장애인 근로작업장","road_address":"부산광역시 사상구 모라로192번길 2, 1층, 2층(모라동, 사상구 장애인근로작업장)","lat":"35.18542862","lon":"129.0003602","tel":"051-304-9747","fixed_number":"30","basic_date":"2023-07-05"},{"gugun":"부산광역시 사상구","facility_type":"장애인보호작업장","facility_name":"한마음 직업재활원","road_address":"부산광역시 사상구 광장로 103번길 34, 1층(괘법동)","lat":"35.16438412","lon":"128.9879178","tel":"051-325-7300","fixed_number":"20","basic_date":"2023-07-05"},{"gugun":"부산광역시 사상구","facility_type":"장애인보호작업장","facility_name":"지원 직업재활원","road_address":"부산광역시 사상구 운산로 77(덕포1동)","lat":"35.1676099","lon":"128.9847515","tel":"051-327-7720","fixed_number":"20","basic_date":"2023-07-05"},{"gugun":"부산광역시 사상구","facility_type":"공동생활가정","facility_name":"꾸미네사랑방 공동생활가정","road_address":"부산광역시 백양대로 846, 2동 105호(모라1동, 무학아파트)","lat":"35.18193676","lon":"128.9887233","tel":"051-323-4800","fixed_number":"4","basic_date":"2023-07-05"},{"gugun":"부산광역시 사상구","facility_type":"공동생활가정","facility_name":"꾸미네집 공동생활가정","road_address":"부산광역시 백양대로 879, 102동 105호(모라1동, 동원아파트)","lat":"35.18548228","lon":"128.990556","tel":"051-302-0300","fixed_number":"4","basic_date":"2023-07-05"},{"gugun":"부산광역시 사상구","facility_type":"공동생활가정","facility_name":"밀알의집 공동생활가정","road_address":"부산광역시 주감로 207-6, 101동 2005호 (주례2동, 창우블루빌아파트)","lat":"35.15208498","lon":"129.0091594","tel":"051-311-6229","fixed_number":"4","basic_date":"2023-07-05"},{"gugun":"부산광역시 사상구","facility_type":"공동생활가정","facility_name":"진주홈 공동생활가정","road_address":"부산광역시 사상구 사상로310번길 54, 1동 510호 (덕포1동, 유원아파트)","lat":"35.17101263","lon":"128.9864173","tel":"051-342-6864","fixed_number":"4","basic_date":"2023-07-05"},{"gugun":"부산광역시 사상구","facility_type":"공동생활가정","facility_name":"체리동산 공동생활가정","road_address":"부산광역시 사상구 가야대로366번길 107 (주례2동)","lat":"35.14631773","lon":"129.0132693","tel":"051-311-7006","fixed_number":"4","basic_date":"2023-07-05"},{"gugun":"부산광역시 사상구","facility_type":"공동생활가정","facility_name":"체리동산 공동생활가정 2호","road_address":"부산광역시 사상구 가야대로 366번길 15(주례2동)","lat":"35.15031474","lon":"129.0128141","tel":"051-312-7005","fixed_number":"4","basic_date":"2023-07-05"},{"gugun":"부산광역시 사상구","facility_type":"공동생활가정","facility_name":"체리동산 공동생활가정 3호","road_address":"부산광역시 사상구 가야대로 306번길20, 주례맨션 8동203호(주례3동)","lat":"35.14918397","lon":"129.0057324","tel":"051-313-7002","fixed_number":"4","basic_date":"2023-07-05"},{"gugun":"부산광역시 사상구","facility_type":"단기거주시설","facility_name":"들꽃 단기보호시설","road_address":"부산광역시 사상구 모라로110번길 25, 6층(모라3동, 녹산빌딩)","lat":"35.18528635","lon":"128.9924641","tel":"051-302-6013","fixed_number":"15","basic_date":"2023-07-05"},{"gugun":"부산광역시 사상구","facility_type":"장애유형별거주시설(지적)","facility_name":"라온누리","road_address":"부산광역시 사상구 대동로 34-25 (엄궁동, 럭키아파트 101동 107호 외 8개소)","lat":"35.13446875","lon":"128.97655","tel":"051-312-1365","fixed_number":"30","basic_date":"2023-07-05"},{"gugun":"부산광역시 기장군","facility_type":"장애인직업재활시설","facility_name":"공존직업재활센터","road_address":"부산광역시 기장군 정관읍 예림1로 82","lat":"35.32605636","lon":"129.2089295","tel":"051-711-8815","fixed_number":"30","basic_date":"2023-07-13"},{"gugun":"연제구","facility_type":"기타(중증장애인자립생활지원센터)","facility_name":"연제장애인자립생활센터","road_address":"부산광역시 연제구 명륜로 2번길 7 삼익퓨처타워상가 302호","lat":"35.19517316","lon":"129.0809587","tel":"051-507-9601","fixed_number":"","basic_date":"2023-06-30"},{"gugun":"북구","facility_type":"공동생활가정","facility_name":"다솜의 집","road_address":"부산광역시 북구 시랑로 131번길 24, 201호, 202호(구포동)","lat":"35.19647524","lon":"129.0106533","tel":"051-338-5565","fixed_number":"4","basic_date":"2022-12-31"},{"gugun":"북구","facility_type":"기타시설","facility_name":"부산장애인자립생활센터","road_address":"부산광역시 북구 화명신도시로117, 8층 (화명동,메트로프라자)","lat":"35.23466847","lon":"129.0104903","tel":"051-338-2287","fixed_number":"30","basic_date":"2022-12-31"},{"gugun":"부산광역시 동래구","facility_type":"장애인복지관","facility_name":"동래구장애인복지관","road_address":"부산광역시 동래구 충렬대로 386(안락동)","lat":"35.19703517","lon":"129.100376","tel":"051-522-1650","fixed_number":"","basic_date":"2023-06-30"},{"gugun":"부산광역시 동래구","facility_type":"장애인주간보호시설","facility_name":"징검다리주간보호센터","road_address":"부산광역시 동래구 시실로107번길 151(명장동)","lat":"35.21122134","lon":"129.0985687","tel":"051-529-2430","fixed_number":"21","basic_date":"2023-06-30"},{"gugun":"부산광역시 동래구","facility_type":"장애인주간보호시설","facility_name":"다솜주간보호센터","road_address":"부산광역시 동래구 시실로167번길 64(명장동)","lat":"35.21123367","lon":"129.0991949","tel":"051-528-5024","fixed_number":"16","basic_date":"2023-06-30"},{"gugun":"부산광역시 동래구","facility_type":"장애인주간보호시설","facility_name":"사직장애인주간보호센터","road_address":"부산광역시 동래구 사직북로63번길 20-7(사직동)","lat":"35.19909602","lon":"129.0573019","tel":"051-506-3418","fixed_number":"18","basic_date":"2023-06-30"},{"gugun":"부산광역시 동래구","facility_type":"장애인주간보호시설","facility_name":"늘사랑장애인주간보호센터","road_address":"부산광역시 동래구 충렬대로 386(안락동)","lat":"35.19703517","lon":"129.100376","tel":"070-7540-7703","fixed_number":"12","basic_date":"2023-06-30"},{"gugun":"부산광역시 동래구","facility_type":"장애인직업재활시설","facility_name":"도영센터","road_address":"부산광역시 동래구 시실로211번길 69-2(명장동)","lat":"35.20915696","lon":"129.0995842","tel":"051-527-1004","fixed_number":"30","basic_date":"2023-06-30"},{"gugun":"부산광역시 동래구","facility_type":"장애인직업재활시설","facility_name":"신라직업재활시설","road_address":"부산광역시 동래구 쇠미로 179(온천동)","lat":"35.2064416","lon":"129.062526","tel":"051-506-4912","fixed_number":"20","basic_date":"2023-06-30"},{"gugun":"부산광역시 동래구","facility_type":"장애인직업재활시설","facility_name":"온사랑직업재활센터","road_address":"부산광역시 동래구 아시아드대로 225, 1층(온천동, 미남메디칼센터)","lat":"35.20425128","lon":"129.0666157","tel":"051-529-1678","fixed_number":"20","basic_date":"2023-06-30"},{"gugun":"부산광역시 동래구","facility_type":"장애인재활치료시설","facility_name":"아이맘심리발달센터","road_address":"부산광역시 동래구 충렬대로137번길 20(온천동)","lat":"35.20627719","lon":"129.0760212","tel":"051-504-5007","fixed_number":"","basic_date":"2023-06-30"},{"gugun":"수영구","facility_type":"장애인지역사회재활시설","facility_name":"수영구장애인복지관","road_address":"부산광역시 수영구 장대골로 75-14 (광안동, 수영구장애인복지관)","lat":"35.159622","lon":"129.104931","tel":"051-717-0290","fixed_number":"200","basic_date":"2023-06-30"},{"gugun":"사하구","facility_type":"장애인지역사회재활시설","facility_name":"사하구장애인종합복지관","road_address":"사하로68번길 65(구평동)","lat":"35.08544264","lon":"128.992995","tel":"051-262-2461","fixed_number":"200","basic_date":"2023-06-30"},{"gugun":"사하구","facility_type":"장애인지역사회재활시설","facility_name":"장애인종합복지관부설주간보호센터","road_address":"사하로68번길 65(구평동)복지관내 1층","lat":"35.08544264","lon":"128.992995","tel":"051-261-8701","fixed_number":"12","basic_date":"2023-06-30"},{"gugun":"사하구","facility_type":"장애인지역사회재활시설","facility_name":"행복나눔 장애인주간보호센터","road_address":"윤공단로 53(다대1동) 2층(조성아파트2동 앞)","lat":"35.05720982","lon":"128.9674499","tel":"051-241-1365","fixed_number":"16","basic_date":"2023-06-30"},{"gugun":"사하구","facility_type":"장애인지역사회재활시설","facility_name":"해온 장애인주간보호센터","road_address":"감천로 139번길 49(감천1동)","lat":"35.08870449","lon":"129.0062494","tel":"051-201-0283","fixed_number":"15","basic_date":"2023-06-30"},{"gugun":"사하구","facility_type":"장애인지역사회재활시설","facility_name":"가온누리 장애인주간보호센터","road_address":"윤공단로 35-4(다대1동)","lat":"35.05553475","lon":"128.9672547","tel":"051-261-5966","fixed_number":"13","basic_date":"2023-06-30"},{"gugun":"사하구","facility_type":"장애인지역사회재활시설","facility_name":"꿈마루 장애인주간보호센터","road_address":"낙동남로 1405번길 26, 7층(하단2동)","lat":"35.10793908","lon":"128.9654721","tel":"051-710-7372","fixed_number":"12","basic_date":"2023-06-30"},{"gugun":"사하구","facility_type":"장애인지역사회재활시설","facility_name":"연우 장애인주간보호센터","road_address":"다대로 413-1 1층(다대2동)","lat":"35.0663644","lon":"128.980254","tel":"051-265-2538","fixed_number":"12","basic_date":"2023-06-30"},{"gugun":"사하구","facility_type":"장애인지역사회재활시설","facility_name":"더사랑 장애인주간보호센터","road_address":"윤공단로 53(다대1동) 1층(조성아파트2동 앞)","lat":"35.05720982","lon":"128.9674499","tel":"051-714-1293","fixed_number":"12","basic_date":"2023-06-30"},{"gugun":"사하구","facility_type":"장애인지역사회재활시설","facility_name":"부산광역시사하구수어통역센터","road_address":"낙동남로1400,402호(하단동,정우헤리티지)","lat":"35.10580907","lon":"128.9646792","tel":"051-203-2006","fixed_number":"20","basic_date":"2023-06-30"},{"gugun":"사하구","facility_type":"장애인거주시설","facility_name":"호산나제1그룹홈","road_address":"낙동남로1405번길32,306호(하단2동,에덴현대아파트)","lat":"35.10807551","lon":"128.9653202","tel":"051-293-9388","fixed_number":"4","basic_date":"2023-06-30"},{"gugun":"사하구","facility_type":"장애인거주시설","facility_name":"푸른집","road_address":"다대로 473, 106동 102호(다대2동,현대아파트)","lat":"35.06147729","lon":"128.9793185","tel":"051-265-4278","fixed_number":"5","basic_date":"2023-06-30"},{"gugun":"사하구","facility_type":"장애인거주시설","facility_name":"민들레집","road_address":"승학로131번길 25(당리동)","lat":"35.10455577","lon":"128.9826532","tel":"051-205-8805","fixed_number":"6","basic_date":"2023-06-30"},{"gugun":"사하구","facility_type":"장애인거주시설","facility_name":"무지개홈","road_address":"다대낙조1길 42, 103동 1901호(다대1동,성원아파트)","lat":"35.04848711","lon":"128.9682019","tel":"051-261-2143","fixed_number":"7","basic_date":"2023-06-30"},{"gugun":"사하구","facility_type":"장애인거주시설","facility_name":"사랑의집","road_address":"다대로 301, 6동 111호(장림2동, 현대아파트)","lat":"35.07368156","lon":"128.9771948","tel":"051-266-3024","fixed_number":"8","basic_date":"2023-06-30"},{"gugun":"사하구","facility_type":"장애인거주시설","facility_name":"호산나제2그룹홈","road_address":"낙동남로 1361번길 22, 105호(하단2동, 동일연립)","lat":"35.10751633","lon":"128.9608272","tel":"051-206-9588","fixed_number":"9","basic_date":"2023-06-30"},{"gugun":"사하구","facility_type":"장애인거주시설","facility_name":"주보배홈","road_address":"다대로277번길 56, 102동202호(장림2동,동원타워)","lat":"35.07588001","lon":"128.980664","tel":"070-7773-6324","fixed_number":"10","basic_date":"2023-06-30"},{"gugun":"사하구","facility_type":"장애인거주시설","facility_name":"우리집","road_address":"윤공단로 96, 2층 (다대1동)","lat":"35.05977455","lon":"128.9702428","tel":"051-264-0804","fixed_number":"11","basic_date":"2023-06-30"},{"gugun":"사하구","facility_type":"장애인직업재활시설","facility_name":"꿈모아직업재활센터","road_address":"사하구 동매로29 (하단2동) 2층","lat":"35.10376106","lon":"128.9615069","tel":"051-204-1042","fixed_number":"30","basic_date":"2023-06-30"},{"gugun":"사하구","facility_type":"장애인직업재활시설","facility_name":"굿윌코리아 보호작업장","road_address":"낙동남로 1405번길 26,(하단2동)","lat":"35.10793908","lon":"128.9654722","tel":"051-293-9104","fixed_number":"30","basic_date":"2023-06-30"},{"gugun":"부산광역시 사상구","facility_type":"장애인복지관","facility_name":"사상구장애인복지관","road_address":"부산광역시 사상구 모라로192번길 21(모라3동)","lat":"35.18490105","lon":"129.0009356","tel":"051-302-5523","fixed_number":"500","basic_date":"2023-07-05"},{"gugun":"부산광역시 사상구","facility_type":"장애인주간보호시설","facility_name":"들꽃주간보호센터","road_address":"부산광역시 사상구 사상로342번길 40-6 (덕포1동)","lat":"35.1746723","lon":"128.9864176","tel":"051-301-6013","fixed_number":"15","basic_date":"2023-07-05"},{"gugun":"부산광역시 기장군","facility_type":"장애인거주시설","facility_name":"해피스쿨","road_address":"부산광역시 기장군 정관읍 병산로 42-18","lat":"35.3360514","lon":"129.1733954","tel":"051-727-3927","fixed_number":"38","basic_date":"2023-07-13"},{"gugun":"부산광역시 기장군","facility_type":"장애인거주시설","facility_name":"성우해피홈","road_address":"부산광역시 기장군 장안읍 대룡2길 45-1","lat":"35.37483686","lon":"129.2635376","tel":"051-727-4200","fixed_number":"30","basic_date":"2023-07-13"},{"gugun":"부산광역시 기장군","facility_type":"장애인거주시설","facility_name":"대성한울타리","road_address":"부산광역시 기장군 일광면 장곡길 27-1","lat":"35.30138507","lon":"129.2541361","tel":"051-784-0028","fixed_number":"30","basic_date":"2023-07-13"},{"gugun":"부산광역시 기장군","facility_type":"장애인거주시설","facility_name":"반석송하원","road_address":"부산광역시 기장군 장안읍 못안길 47-1","lat":"35.37920445","lon":"129.2595998","tel":"051-727-1820","fixed_number":"30","basic_date":"2023-07-13"},{"gugun":"부산광역시 기장군","facility_type":"장애인공동생활가정","facility_name":"늘채움공동생활가정","road_address":"부산광역시 기장군 기장읍 차성로 417번길 5, 101동 203호(경보이리스힐)","lat":"35.25464704","lon":"129.215592","tel":"051-723-0911","fixed_number":"4","basic_date":"2023-07-13"},{"gugun":"부산광역시 기장군","facility_type":"장애인공동생활가정","facility_name":"천사들의집","road_address":"부산광역시 기장군 철마면 철마삼동로 58-1","lat":"35.30950875","lon":"129.1151165","tel":"051-508-1080","fixed_number":"4","basic_date":"2023-07-13"},{"gugun":"부산광역시 기장군","facility_type":"장애인공동생활가정","facility_name":"기장홈","road_address":"부산광역시 기장군 기장읍 차성서로 77번길 36-10, 102호(팰리스빌 3차)","lat":"35.24094389","lon":"129.2077404","tel":"070-7343-4922","fixed_number":"4","basic_date":"2023-07-13"},{"gugun":"부산광역시 기장군","facility_type":"장애인지역사회재활시설","facility_name":"기장장애인복지관","road_address":"부산광역시 기장군 정관읍 병산로 42-15","lat":"35.33642884","lon":"129.1735108","tel":"051-727-3088","fixed_number":"","basic_date":"2023-07-13"},{"gugun":"부산광역시 기장군","facility_type":"장애인지역사회재활시설","facility_name":"기장장애인복지관부설주간보호센터","road_address":"부산광역시 기장군 정관읍 병산로 42-15","lat":"35.33642884","lon":"129.1735108","tel":"051-727-3088","fixed_number":"15","basic_date":"2023-07-13"},{"gugun":"부산광역시 기장군","facility_type":"장애인지역사회재활시설","facility_name":"교리장애인주간보호센터","road_address":"부산광역시 기장군 기장읍 차성로 451번길 46-13","lat":"35.25738399","lon":"129.2141164","tel":"051-724-0919","fixed_number":"15","basic_date":"2023-07-13"},{"gugun":"부산광역시 기장군","facility_type":"장애인직업재활시설","facility_name":"동행과 나눔","road_address":"부산광역시 기장군 정관읍 병산로 127-25","lat":"35.34243527","lon":"129.176865","tel":"051-728-0070","fixed_number":"35","basic_date":"2023-07-13"},{"gugun":"연제구","facility_type":"장애인거주시설(생활시설)","facility_name":"가온들찬빛","road_address":"경상남도 양산시 신명3길 125(평산동)","lat":"35.38818036","lon":"129.1391381","tel":"055-365-2818","fixed_number":"70","basic_date":"2023-06-30"},{"gugun":"부산광역시 부산진구","facility_type":"장애인지역사회재활시설","facility_name":"이레주간보호센터","road_address":"부산광역시 부산진구 시민공원로19번길 32-8(부암동, 1층)","lat":"35.16452905","lon":"129.0519801","tel":"051-819-7784","fixed_number":"16","basic_date":"2023-06-30"},{"gugun":"부산광역시 부산진구","facility_type":"장애인거주시설","facility_name":"신애재활원","road_address":"부산광역시 부산진구 성지로62번길 40 (초읍동)","lat":"35.17771616","lon":"129.0561463","tel":"051-816-9128","fixed_number":"69","basic_date":"2023-06-30"},{"gugun":"부산광역시 강서구","facility_type":"장애인거주시설","facility_name":"베데스다원","road_address":"강서구 공항로 1319","lat":"35.21534332","lon":"128.9886126","tel":"051-971-0330","fixed_number":"52","basic_date":"2023-07-20"},{"gugun":"부산광역시 강서구","facility_type":"장애인거주시설","facility_name":"은송의집","road_address":"김해시 상동면 장척로 611-21","lat":"35.29569271","lon":"128.9272621","tel":"055-724-2341","fixed_number":"56","basic_date":"2023-07-20"},{"gugun":"부산광역시 강서구","facility_type":"장애인거주시설","facility_name":"동원재활원","road_address":"울주군 두동면 천전각석길 11","lat":"35.6180015","lon":"129.1693365","tel":"052-263-6465","fixed_number":"79","basic_date":"2023-07-20"},{"gugun":"부산광역시 강서구","facility_type":"장애인거주시설","facility_name":"동연요양원","road_address":"울주군 두동면 천전각석길 11","lat":"35.6180015","lon":"129.1693365","tel":"052-263-6466","fixed_number":"98","basic_date":"2023-07-20"},{"gugun":"부산광역시 강서구","facility_type":"장애인거주시설","facility_name":"진애생활복지원","road_address":"강서구 성북2길 52","lat":"35.05619952","lon":"128.8289829","tel":"051-971-7718","fixed_number":"40","basic_date":"2023-07-20"},{"gugun":"부산광역시 강서구","facility_type":"장애인거주시설","facility_name":"인혜원","road_address":"강서구 대저중앙로394번가길 29","lat":"35.21637659","lon":"128.9868128","tel":"051-971-9209","fixed_number":"30","basic_date":"2023-07-20"},{"gugun":"부산광역시 강서구","facility_type":"장애인직업재활시설","facility_name":"베데스다직업재활원","road_address":"김해시 상동면 장척로 611-21","lat":"35.29569271","lon":"128.9272621","tel":"055-329-3666","fixed_number":"34","basic_date":"2023-07-20"},{"gugun":"부산광역시 강서구","facility_type":"장애인직업재활시설","facility_name":"동원직업재활원","road_address":"울주군 두동면 천전각석길 11","lat":"35.6180015","lon":"129.1693365","tel":"052-263-6634","fixed_number":"50","basic_date":"2023-07-20"},{"gugun":"부산광역시 강서구","facility_type":"장애인직업재활시설","facility_name":"부산장애인직업재활원","road_address":"강서구 대저로89번다길 70","lat":"35.21923179","lon":"128.96701","tel":"051-868-3534","fixed_number":"45","basic_date":"2023-07-20"},{"gugun":"부산광역시 강서구","facility_type":"장애인직업재활시설","facility_name":"한마음직업재활센터","road_address":"강서구 가락대로1469-7","lat":"35.19538163","lon":"128.9015873","tel":"051-710-0913","fixed_number":"15","basic_date":"2023-07-20"},{"gugun":"부산광역시 강서구","facility_type":"장애인주간보호시설","facility_name":"호산나장애인주간보호센터","road_address":"강서구 낙동남로 611-3","lat":"35.11448131","lon":"128.8855769","tel":"051-941-9190","fixed_number":"12","basic_date":"2023-07-20"},{"gugun":"부산광역시 영도구","facility_type":"거주시설","facility_name":"천성재활원","road_address":"부산광역시 영도구 일산봉로 95(청학동)","lat":"35.0904098","lon":"129.0650745","tel":"051-413-4408","fixed_number":"30","basic_date":"2023-06-30"},{"gugun":"부산광역시 영도구","facility_type":"직업재활시설","facility_name":"천성직업재활원","road_address":"부산광역시 영도구 일산봉로 95(청학동)","lat":"35.0904098","lon":"129.0650745","tel":"051-418-4448","fixed_number":"40","basic_date":"2023-06-30"}]},"numOfRows":224,"pageNo":1,"totalCount":224}}}]